{"type":"FeatureCollection","totalFeatures":42,"features":[{"type":"Feature","id":"bicyclestore.15","geometry":{"type":"Point","coordinates":[4.3462,50.8483]},"geometry_name":"geom","properties":{"gid":15,"name_fr":"Velodroom bvba","name_nl":"Velodroom bvba","mu_fr":"Bruxelles","mu_nl":"Brussel","pccp":1000,"road_fr":"Rue Van Artevelde","road_nl":"Arteveldestraat","housenr":"41","tel":"02/513.81.99","mail":"","web":"","image":"","info_fr":"","info_nl":"","bbox":[4.3462,50.8483,4.3462,50.8483]}},{"type":"Feature","id":"bicyclestore.17","geometry":{"type":"Point","coordinates":[4.3601,50.8998]},"geometry_name":"geom","properties":{"gid":17,"name_fr":"Sport 2000","name_nl":"Sport 2000","mu_fr":"Bruxelles","mu_nl":"Brussel","pccp":1020,"road_fr":"Rue De Wand","road_nl":"De Wandstraat","housenr":"122","tel":"02/268.53.41","mail":"","web":"","image":"","info_fr":"","info_nl":"","bbox":[4.3601,50.8998,4.3601,50.8998]}},{"type":"Feature","id":"bicyclestore.18","geometry":{"type":"Point","coordinates":[4.412,50.8587]},"geometry_name":"geom","properties":{"gid":18,"name_fr":"Cycles IMP","name_nl":"Cycles IMP","mu_fr":"Evere","mu_nl":"Evere","pccp":1140,"road_fr":"Chaussée de Louvain","road_nl":"Leuvensesteenweg","housenr":"767","tel":"02/705.38.63","mail":"","web":"","image":"","info_fr":"","info_nl":"","bbox":[4.412,50.8587,4.412,50.8587]}},{"type":"Feature","id":"bicyclestore.19","geometry":{"type":"Point","coordinates":[4.3962,50.8542]},"geometry_name":"geom","properties":{"gid":19,"name_fr":"La Maison du vélo","name_nl":"La Maison du vélo","mu_fr":"Schaerbeek","mu_nl":"Schaarbeek","pccp":1030,"road_fr":"Avenue Milcamps","road_nl":"Milcampslaan","housenr":"235","tel":"02/742.07.45","mail":"","web":"","image":"","info_fr":"","info_nl":"","bbox":[4.3962,50.8542,4.3962,50.8542]}},{"type":"Feature","id":"bicyclestore.20","geometry":{"type":"Point","coordinates":[4.3727,50.8671]},"geometry_name":"geom","properties":{"gid":20,"name_fr":"VéloCité","name_nl":"VéloCité","mu_fr":"Schaerbeek","mu_nl":"Schaarbeek","pccp":1030,"road_fr":"Place Colignon","road_nl":"Colignonplein","housenr":"13","tel":"02/241.36.35","mail":"","web":"","image":"","info_fr":"","info_nl":"","bbox":[4.3727,50.8671,4.3727,50.8671]}},{"type":"Feature","id":"bicyclestore.21","geometry":{"type":"Point","coordinates":[4.3961,50.8329]},"geometry_name":"geom","properties":{"gid":21,"name_fr":"Bicycles shop","name_nl":"Bicycles shop","mu_fr":"Etterbeek","mu_nl":"Etterbeek","pccp":1040,"road_fr":"Avenue du Onze Novembre","road_nl":"Elf Novemberlaan","housenr":"66","tel":"02/732.61.58","mail":"","web":"","image":"","info_fr":"","info_nl":"","bbox":[4.3961,50.8329,4.3961,50.8329]}},{"type":"Feature","id":"bicyclestore.22","geometry":{"type":"Point","coordinates":[4.3893,50.8303]},"geometry_name":"geom","properties":{"gid":22,"name_fr":"C.Y.D.","name_nl":"C.Y.D.","mu_fr":"Etterbeek","mu_nl":"Etterbeek","pccp":1040,"road_fr":"Avenue Eudore Pirmez","road_nl":"Eudore Pirmezlaan","housenr":"14","tel":"02/640.17.60","mail":"","web":"","image":"","info_fr":"","info_nl":"","bbox":[4.3893,50.8303,4.3893,50.8303]}},{"type":"Feature","id":"bicyclestore.23","geometry":{"type":"Point","coordinates":[4.3839,50.8393]},"geometry_name":"geom","properties":{"gid":23,"name_fr":"Hangloose  BMX Shop","name_nl":"Hangloose  BMX Shop","mu_fr":"Etterbeek","mu_nl":"Etterbeek","pccp":1040,"road_fr":"Rue Demot","road_nl":"De Motstraat","housenr":"16","tel":"02/231.06.93","mail":"","web":"","image":"","info_fr":"","info_nl":"","bbox":[4.3839,50.8393,4.3839,50.8393]}},{"type":"Feature","id":"bicyclestore.24","geometry":{"type":"Point","coordinates":[4.3916,50.8195]},"geometry_name":"geom","properties":{"gid":24,"name_fr":"Cycles Devos","name_nl":"Cycles Devos","mu_fr":"Ixelles","mu_nl":"Elsene","pccp":1050,"road_fr":"Avenue de la Couronne","road_nl":"Kroonlaan","housenr":"500","tel":"02/648.62.72","mail":"","web":"","image":"","info_fr":"","info_nl":"","bbox":[4.3916,50.8195,4.3916,50.8195]}},{"type":"Feature","id":"bicyclestore.25","geometry":{"type":"Point","coordinates":[4.3674,50.8333]},"geometry_name":"geom","properties":{"gid":25,"name_fr":"Blue Bicycle","name_nl":"Blue Bicycle","mu_fr":"Ixelles","mu_nl":"Elsene","pccp":1050,"road_fr":"Place Fernand Cocq","road_nl":"Fernand Cocqplein","housenr":"18","tel":"02/512.39.69","mail":"","web":"","image":"","info_fr":"","info_nl":"","bbox":[4.3674,50.8333,4.3674,50.8333]}},{"type":"Feature","id":"bicyclestore.26","geometry":{"type":"Point","coordinates":[4.3432,50.8325]},"geometry_name":"geom","properties":{"gid":26,"name_fr":"MYDO Bike","name_nl":"MYDO Bike","mu_fr":"Saint-Gilles","mu_nl":"Sint-Gillis","pccp":1060,"road_fr":"Avenue Jean Volders","road_nl":"Jean Volderslaan","housenr":"6","tel":"0495/206990","mail":"","web":"","image":"","info_fr":"","info_nl":"","bbox":[4.3432,50.8325,4.3432,50.8325]}},{"type":"Feature","id":"bicyclestore.28","geometry":{"type":"Point","coordinates":[4.2914,50.8192]},"geometry_name":"geom","properties":{"gid":28,"name_fr":"Van den Driesche J","name_nl":"Van den Driesche J","mu_fr":"Anderlecht","mu_nl":"Anderlecht","pccp":1070,"road_fr":"Rue des Trèfles","road_nl":"Klaverstraat","housenr":"30","tel":"02/521.94.71","mail":"","web":"","image":"","info_fr":"","info_nl":"","bbox":[4.2914,50.8192,4.2914,50.8192]}},{"type":"Feature","id":"bicyclestore.29","geometry":{"type":"Point","coordinates":[4.2965,50.8613]},"geometry_name":"geom","properties":{"gid":29,"name_fr":"Fun Bike","name_nl":"Fun Bike","mu_fr":"Berchem-Sainte-Agathe","mu_nl":"Sint-Agatha-Berchem","pccp":1082,"road_fr":"Rue des Soldats","road_nl":"Soldatenstraat","housenr":"100","tel":"02/469.19.79","mail":"","web":"","image":"","info_fr":"","info_nl":"","bbox":[4.2965,50.8613,4.2965,50.8613]}},{"type":"Feature","id":"bicyclestore.31","geometry":{"type":"Point","coordinates":[4.4012,50.8716]},"geometry_name":"geom","properties":{"gid":31,"name_fr":"Cyclo Europe","name_nl":"Cyclo Europe","mu_fr":"Evere","mu_nl":"Evere","pccp":1140,"road_fr":"Avenue Notre-Dame","road_nl":"Onze Lieve Vrouwlaan","housenr":"127","tel":"02/245.83.94","mail":"","web":"","image":"","info_fr":"","info_nl":"","bbox":[4.4012,50.8716,4.4012,50.8716]}},{"type":"Feature","id":"bicyclestore.32","geometry":{"type":"Point","coordinates":[4.461,50.8427]},"geometry_name":"geom","properties":{"gid":32,"name_fr":"Atelier du Cycle","name_nl":"Atelier du Cycle","mu_fr":"Woluwe-Saint-Pierre","mu_nl":"Sint-Pieters-Woluwe","pccp":1150,"road_fr":"Stuyvenberg","road_nl":"Stuyvenberg","housenr":"67","tel":"02/772.10.21","mail":"","web":"","image":"","info_fr":"","info_nl":"","bbox":[4.461,50.8427,4.461,50.8427]}},{"type":"Feature","id":"bicyclestore.33","geometry":{"type":"Point","coordinates":[4.4304,50.8372]},"geometry_name":"geom","properties":{"gid":33,"name_fr":"Bestbike","name_nl":"Bestbike","mu_fr":"Woluwe-Saint-Pierre","mu_nl":"Sint-Pieters-Woluwe","pccp":1150,"road_fr":"Avenue Charles Thielemans","road_nl":"Charles Thielemanslaan","housenr":"29","tel":"02/770.02.42","mail":"","web":"","image":"","info_fr":"","info_nl":"","bbox":[4.4304,50.8372,4.4304,50.8372]}},{"type":"Feature","id":"bicyclestore.34","geometry":{"type":"Point","coordinates":[4.4487,50.8325]},"geometry_name":"geom","properties":{"gid":34,"name_fr":"Stockel Sports","name_nl":"Stockel Sports","mu_fr":"Woluwe-Saint-Pierre","mu_nl":"Sint-Pieters-Woluwe","pccp":1150,"road_fr":"Rue au Bois","road_nl":"Bosstraat","housenr":"241","tel":"02/762.09.01","mail":"","web":"","image":"","info_fr":"","info_nl":"","bbox":[4.4487,50.8325,4.4487,50.8325]}},{"type":"Feature","id":"bicyclestore.35","geometry":{"type":"Point","coordinates":[4.4417,50.8104]},"geometry_name":"geom","properties":{"gid":35,"name_fr":"Cicli Marisa","name_nl":"Cicli Marisa","mu_fr":"Auderghem","mu_nl":"Oudergem","pccp":1160,"road_fr":"Chaussée de Wavre","road_nl":"Waversesteenweg","housenr":"2033","tel":"02/673.21.00","mail":"","web":"","image":"","info_fr":"","info_nl":"","bbox":[4.4417,50.8104,4.4417,50.8104]}},{"type":"Feature","id":"bicyclestore.36","geometry":{"type":"Point","coordinates":[4.4192,50.8]},"geometry_name":"geom","properties":{"gid":36,"name_fr":"Vélo Pipette","name_nl":"Vélo Pipette","mu_fr":"Watermael-Boitsfort","mu_nl":"Watermaal-Bosvoorde","pccp":1170,"road_fr":"Rue de l'Hospice Communal","road_nl":"Gemeentelijke Godshuisstraat","housenr":"47","tel":"02/672.16.98","mail":"","web":"","image":"","info_fr":"","info_nl":"","bbox":[4.4192,50.8,4.4192,50.8]}},{"type":"Feature","id":"bicyclestore.37","geometry":{"type":"Point","coordinates":[4.3213,50.7858]},"geometry_name":"geom","properties":{"gid":37,"name_fr":"Bike Service","name_nl":"Bike Service","mu_fr":"Uccle","mu_nl":"Ukkel","pccp":1180,"road_fr":"Chaussée de Drogenbos","road_nl":"Drogenbossesteenweg","housenr":"210","tel":"02/376.21.83","mail":"","web":"","image":"","info_fr":"","info_nl":"","bbox":[4.3213,50.7858,4.3213,50.7858]}},{"type":"Feature","id":"bicyclestore.38","geometry":{"type":"Point","coordinates":[4.3677,50.8145]},"geometry_name":"geom","properties":{"gid":38,"name_fr":"BikeShop Hot Wheels","name_nl":"BikeShop Hot Wheels","mu_fr":"Uccle","mu_nl":"Ukkel","pccp":1180,"road_fr":"Chaussée de Waterloo","road_nl":"Waterloosesteenweg","housenr":"744","tel":"02/647.87.97","mail":"","web":"","image":"","info_fr":"","info_nl":"","bbox":[4.3677,50.8145,4.3677,50.8145]}},{"type":"Feature","id":"bicyclestore.39","geometry":{"type":"Point","coordinates":[4.3754,50.7973]},"geometry_name":"geom","properties":{"gid":39,"name_fr":"Cycle Derycke","name_nl":"Cycle Derycke","mu_fr":"Uccle","mu_nl":"Ukkel","pccp":1180,"road_fr":"Chaussée de Waterloo","road_nl":"Waterloosesteenweg","housenr":"1104","tel":"02/374.53.72","mail":"","web":"","image":"","info_fr":"","info_nl":"","bbox":[4.3754,50.7973,4.3754,50.7973]}},{"type":"Feature","id":"bicyclestore.40","geometry":{"type":"Point","coordinates":[4.3609,50.8143]},"geometry_name":"geom","properties":{"gid":40,"name_fr":"Veloxygène","name_nl":"Veloxygène","mu_fr":"Uccle","mu_nl":"Ukkel","pccp":1180,"road_fr":"Rue Vanderkindere","road_nl":"Vanderkinderestraat","housenr":"395","tel":"02/343.47.57","mail":"","web":"","image":"","info_fr":"","info_nl":"","bbox":[4.3609,50.8143,4.3609,50.8143]}},{"type":"Feature","id":"bicyclestore.41","geometry":{"type":"Point","coordinates":[4.4028,50.8416]},"geometry_name":"geom","properties":{"gid":41,"name_fr":"Eddy Sport","name_nl":"Eddy Sport","mu_fr":"Woluwe-Saint-Lambert","mu_nl":"Sint-Lambrechts-Woluwe","pccp":1200,"road_fr":"Avenue Georges Henri","road_nl":"Georges Henrilaan","housenr":"476","tel":"02/734.24.58","mail":"","web":"","image":"","info_fr":"","info_nl":"","bbox":[4.4028,50.8416,4.4028,50.8416]}},{"type":"Feature","id":"bicyclestore.30","geometry":{"type":"Point","coordinates":[4.3288,50.8728]},"geometry_name":"geom","properties":{"gid":30,"name_fr":"Brussels Bike Co.","name_nl":"Brussels Bike Co.","mu_fr":"Jette","mu_nl":"Jette","pccp":1090,"road_fr":"Boulevard de Smet de Naeyer","road_nl":"de Smet de Naeyerlaan","housenr":"54","tel":"0498/76.30.30","mail":"","web":"","image":"","info_fr":"","info_nl":"","bbox":[4.3288,50.8728,4.3288,50.8728]}},{"type":"Feature","id":"bicyclestore.16","geometry":{"type":"Point","coordinates":[4.3241,50.8733]},"geometry_name":"geom","properties":{"gid":16,"name_fr":"Cicli Fransman","name_nl":"Cicli Fransman","mu_fr":"Jette","mu_nl":"Jette","pccp":1090,"road_fr":"Rue Pierre Timmermans","road_nl":"Pierre Timmermansstraat","housenr":"18","tel":"02/427.62.90","mail":"","web":"","image":"","info_fr":"","info_nl":"","bbox":[4.3241,50.8733,4.3241,50.8733]}},{"type":"Feature","id":"bicyclestore.42","geometry":{"type":"Point","coordinates":[4.4355,50.8441]},"geometry_name":"geom","properties":{"gid":42,"name_fr":"Sea Speed sc","name_nl":"Sea Speed sc","mu_fr":"Woluwe-Saint-Lambert","mu_nl":"Sint-Lambrechts-Woluwe","pccp":1200,"road_fr":"Rue Saint-Lambert","road_nl":"Sint-Lambertusstraat","housenr":"111","tel":"02/770.25.33","mail":"","web":"","image":"","info_fr":"","info_nl":"","bbox":[4.4355,50.8441,4.4355,50.8441]}},{"type":"Feature","id":"bicyclestore.43","geometry":{"type":"Point","coordinates":[4.3476,50.8579]},"geometry_name":"geom","properties":{"gid":43,"name_fr":"Magic Vélos","name_nl":"Magic Vélos","mu_fr":"Bruxelles","mu_nl":"Brussel","pccp":1000,"road_fr":"Square Sainctelette","road_nl":"Sainctelettesquare","housenr":"6","tel":"02/425.75.35","mail":"","web":"","image":"","info_fr":"","info_nl":"","bbox":[4.3476,50.8579,4.3476,50.8579]}},{"type":"Feature","id":"bicyclestore.44","geometry":{"type":"Point","coordinates":[4.3595,50.8544]},"geometry_name":"geom","properties":{"gid":44,"name_fr":"Sport World City 2","name_nl":"Sport World City 2","mu_fr":"Bruxelles","mu_nl":"Brussel","pccp":1000,"road_fr":"Rue des Cendres","road_nl":"Asstraat","housenr":"16","tel":"02/217.88.15","mail":"","web":"","image":"","info_fr":"","info_nl":"","bbox":[4.3595,50.8544,4.3595,50.8544]}},{"type":"Feature","id":"bicyclestore.45","geometry":{"type":"Point","coordinates":[4.2767,50.8193]},"geometry_name":"geom","properties":{"gid":45,"name_fr":"Decathlon","name_nl":"Decathlon","mu_fr":"Anderlecht","mu_nl":"Anderlecht","pccp":1070,"road_fr":"Drève Olympique","road_nl":"Olympische dreef","housenr":"50","tel":"02/559.10.10","mail":"","web":"","image":"","info_fr":"","info_nl":"","bbox":[4.2767,50.8193,4.2767,50.8193]}},{"type":"Feature","id":"bicyclestore.46","geometry":{"type":"Point","coordinates":[4.4199,50.7919]},"geometry_name":"geom","properties":{"gid":46,"name_fr":"KM10","name_nl":"KM10","mu_fr":"Watermael-Boitsfort","mu_nl":"Watermaal-Bosvoorde","pccp":1170,"road_fr":"Avenue de la Foresterie","road_nl":"Vorsterielaan","housenr":"10","tel":"02/672.66.10","mail":"","web":"","image":"","info_fr":"","info_nl":"","bbox":[4.4199,50.7919,4.4199,50.7919]}},{"type":"Feature","id":"bicyclestore.48","geometry":{"type":"Point","coordinates":[4.4144,50.8371]},"geometry_name":"geom","properties":{"gid":48,"name_fr":"Ciclissimo","name_nl":"Ciclissimo","mu_fr":"Woluwe-Saint-Pierre","mu_nl":"Sint-Pieters-Woluwe","pccp":1150,"road_fr":"Rue du Duc","road_nl":"Hertogstraat","housenr":"24","tel":"0486/35.25.73","mail":"","web":"","image":"","info_fr":"","info_nl":"","bbox":[4.4144,50.8371,4.4144,50.8371]}},{"type":"Feature","id":"bicyclestore.49","geometry":{"type":"Point","coordinates":[4.3521,50.7925]},"geometry_name":"geom","properties":{"gid":49,"name_fr":"Le comptoir du cycle","name_nl":"Le comptoir du cycle","mu_fr":"Uccle","mu_nl":"Ukkel","pccp":1180,"road_fr":"Rue Basse","road_nl":"Diepestraat","housenr":"11","tel":"02/372.28.29","mail":"","web":"","image":"","info_fr":"","info_nl":"","bbox":[4.3521,50.7925,4.3521,50.7925]}},{"type":"Feature","id":"bicyclestore.50","geometry":{"type":"Point","coordinates":[4.3935,50.8315]},"geometry_name":"geom","properties":{"gid":50,"name_fr":"Cycle Services","name_nl":"Cycle Services","mu_fr":"Etterbeek","mu_nl":"Etterbeek","pccp":1040,"road_fr":"Rue des Cultivateurs","road_nl":"Landbouwersstraat","housenr":"52","tel":"0475/81.04.10","mail":"","web":"","image":"","info_fr":"","info_nl":"","bbox":[4.3935,50.8315,4.3935,50.8315]}},{"type":"Feature","id":"bicyclestore.51","geometry":{"type":"Point","coordinates":[4.325,50.8126]},"geometry_name":"geom","properties":{"gid":51,"name_fr":"Vélosofiets","name_nl":"Vélosofiets","mu_fr":"Forest","mu_nl":"Vorst","pccp":1190,"road_fr":"Avenue Zaman","road_nl":"Zamanlaan","housenr":"18","tel":"0491/17.41.64","mail":"","web":"","image":"","info_fr":"","info_nl":"","bbox":[4.325,50.8126,4.325,50.8126]}},{"type":"Feature","id":"bicyclestore.52","geometry":{"type":"Point","coordinates":[4.3801,50.8366]},"geometry_name":"geom","properties":{"gid":52,"name_fr":"Au guidon vert","name_nl":"Au guidon vert","mu_fr":"Etterbeek","mu_nl":"Etterbeek","pccp":1040,"road_fr":"Chaussée de Wavre","road_nl":"Steenweg op Waver","housenr":"354","tel":"02/230.08.02","mail":"","web":"","image":"","info_fr":"","info_nl":"","bbox":[4.3801,50.8366,4.3801,50.8366]}},{"type":"Feature","id":"bicyclestore.54","geometry":{"type":"Point","coordinates":[4.3346,50.8893]},"geometry_name":"geom","properties":{"gid":54,"name_fr":"Velonaut","name_nl":"Velonaut","mu_fr":"Bruxelles","mu_nl":"Brussel","pccp":1020,"road_fr":"Avenue Rommelaere","road_nl":"Rommelaerelaan","housenr":"49","tel":"02/478.09.01","mail":"info@velonaut.be","web":"http://www.velonaut.be/","image":"bike/accomodation/img/S54.jpg","info_fr":"","info_nl":"","bbox":[4.3346,50.8893,4.3346,50.8893]}},{"type":"Feature","id":"bicyclestore.53","geometry":{"type":"Point","coordinates":[4.4632,50.8401]},"geometry_name":"geom","properties":{"gid":53,"name_fr":"Urban Tri Sports","name_nl":"Urban Tri Sports","mu_fr":"Woluwe-Saint-Pierre","mu_nl":"Sint-Pieters-Woluwe","pccp":1150,"road_fr":"Val des Seigneurs","road_nl":"Herendal","housenr":"13","tel":"02/770.10.02","mail":"info@urbantrisports.be","web":"http://www.urbantrisports.be/","image":"","info_fr":"","info_nl":"","bbox":[4.4632,50.8401,4.4632,50.8401]}},{"type":"Feature","id":"bicyclestore.1","geometry":{"type":"Point","coordinates":[4.3934,50.8288]},"geometry_name":"geom","properties":{"gid":1,"name_fr":"J.O. Bikes","name_nl":"J.O. Bikes","mu_fr":"Etterbeek","mu_nl":"Etterbeek","pccp":1040,"road_fr":"Rue Général Fivé","road_nl":"Generaal Fivéstraat","housenr":"4","tel":"02/647.46.71","mail":"info@jobikes.be","web":"http://www.jobikes.be/","image":"bike/accomodation/img/S1.jpg","info_fr":"Vente, entretien et réparation de vélos, du mardi au samedi, sur rendez-vous.","info_nl":"Verkoop, onderhoud en reparatie van fietsen, van dinsdag tot zaterdag, op afspraak.","bbox":[4.3934,50.8288,4.3934,50.8288]}},{"type":"Feature","id":"bicyclestore.47","geometry":{"type":"Point","coordinates":[4.3829,50.8617]},"geometry_name":"geom","properties":{"gid":47,"name_fr":"Pignon Sur Roue","name_nl":"Pignon Sur Roue","mu_fr":"Schaerbeek","mu_nl":"Schaarbeek","pccp":1030,"road_fr":"Rue Josse Impens","road_nl":"Josse Impensstraat","housenr":"1","tel":"0495/84.70.47","mail":"","web":"","image":"","info_fr":"","info_nl":"","bbox":[4.3829,50.8617,4.3829,50.8617]}},{"type":"Feature","id":"bicyclestore.57","geometry":{"type":"Point","coordinates":[4.3797,50.836]},"geometry_name":"geom","properties":{"gid":57,"name_fr":"E-bike center","name_nl":"E-bike center","mu_fr":"Etterbeek","mu_nl":"Etterbeek","pccp":1040,"road_fr":"Chaussée de Wavre","road_nl":"Steenweg op Waver","housenr":"295","tel":"02/644 52 05","mail":"","web":"","image":"","info_fr":"","info_nl":"","bbox":[4.3797,50.836,4.3797,50.836]}},{"type":"Feature","id":"bicyclestore.58","geometry":{"type":"Point","coordinates":[4.2873,50.8633]},"geometry_name":"geom","properties":{"gid":58,"name_fr":"Bxl Bikes","name_nl":"Bxl Bikes","mu_fr":"Berchem-Sainte-Agathe","mu_nl":"Sint-Agatha-Berchem","pccp":1082,"road_fr":"Rue de Grand-Bigard","road_nl":"Groot-Bijgaardenstraat","housenr":"461","tel":"02/465.36.40","mail":"BXL_BIKES@OUTLOOK.COM","web":"http://bxlbikes.be/","image":"","info_fr":"","info_nl":"","bbox":[4.2873,50.8633,4.2873,50.8633]}}],"crs":{"type":"name","properties":{"name":"urn:ogc:def:crs:EPSG::4326"}},"bbox":[4.2767,50.7858,4.4632,50.8998]}